{"version": 0.6, "generator": "Overpass API 0.7.57 93a4d346", "osm3s": {"timestamp_osm_base": "2022-02-21T09:28:52Z", "copyright": "The data included in this document is from www.openstreetmap.org. The data is made available under ODbL."}, "elements": [{"type": "node", "id": 2392653299, "lat": -0.3722002, "lon": 35.2822915, "tags": {"addr:city": "KERICHO", "addr:housename": "QUICKSERVICE", "addr:housenumber": "P.O Box 1985", "addr:postcode": "20200", "amenity": "restaurant", "name": "QUICKSERVICE RESTURANT KERICHO"}}, {"type": "node", "id": 7893551878, "lat": -0.3735763, "lon": 35.2799635, "tags": {"addr:city": "Kericho", "addr:street": "Kericho-Kisumu Highway", "amenity": "restaurant", "name": "Taidy's"}}, {"type": "node", "id": 7976569617, "lat": -0.3538561, "lon": 35.3022588, "tags": {"addr:street": "Kericho-Kisumu Highway", "amenity": "restaurant", "name": "Mzungu Wa Ndege"}}, {"type": "node", "id": 7976569618, "lat": -0.3600991, "lon": 35.2976814, "tags": {"addr:street": "Kericho-Kisumu Highway", "amenity": "restaurant", "name": "Saramek"}}, {"type": "node", "id": 7976569620, "lat": -0.3654394, "lon": 35.2953164, "tags": {"addr:city": "Kericho", "addr:street": "Kericho-Kisumu Highway", "amenity": "restaurant", "name": "Sahara Gardens"}}, {"type": "node", "id": 7976569622, "lat": -0.36595, "lon": 35.2897882, "tags": {"addr:city": "Kericho", "addr:street": "Kericho-Kisumu Highway", "amenity": "restaurant", "name": "Famous Gate"}}, {"type": "node", "id": 7976569624, "lat": -0.368192, "lon": 35.2879928, "tags": {"addr:city": "Kericho", "addr:street": "Kericho-Kisumu Highway", "amenity": "restaurant", "name": "Crescent Drive-in", "opening_hours:signed": "no"}}, {"type": "node", "id": 7976569626, "lat": -0.3756627, "lon": 35.2674372, "tags": {"addr:city": "Kericho", "addr:street": "Kericho-Kisumu Highway", "amenity": "restaurant", "name": "Bridge Bar", "opening_hours:signed": "no"}}, {"type": "node", "id": 7976569627, "lat": -0.3638656, "lon": 35.2741898, "tags": {"addr:city": "Kericho", "amenity": "restaurant", "name": "Litney's"}}, {"type": "node", "id": 7976569628, "lat": -0.3685919, "lon": 35.2857268, "tags": {"addr:city": "Kericho", "addr:street": "John Kerich Road", "amenity": "restaurant", "name": "The Great Style", "opening_hours:signed": "no"}}, {"type": "node", "id": 7976569630, "lat": -0.3685495, "lon": 35.2870442, "tags": {"addr:city": "Kericho", "addr:street": "Kericho-Kisumu Highway", "amenity": "restaurant", "name": "Java House", "opening_hours:signed": "no"}}, {"type": "node", "id": 7977345308, "lat": -0.376052, "lon": 35.266993, "tags": {"addr:city": "Kericho", "addr:street": "Kericho-Kisumu Highway", "amenity": "restaurant", "name": "Roadside Villa", "opening_hours:signed": "no"}}]}